{
"type": "FeatureCollection",
"name": "WLAN-Standorte",
"crs": { "type": "name", "properties": { "name": "urn:ogc:def:crs:OGC:1.3:CRS84" } },
"features": [
{ "type": "Feature", "properties": { "NAME": "Stadtweinhaus", "ADRESSE": "Prinzipalmarkt 9", "RECHTSWERT": 405748.0, "HOCHWERT": 5757675.0, "WLAN_STATUS": "in Betrieb" }, "geometry": { "type": "Point", "coordinates": [ 7.62821249444072, 51.961770888572147 ] } },
{ "type": "Feature", "properties": { "NAME": "Friedenssaal", "ADRESSE": "Prinzipalmarkt 10", "RECHTSWERT": 405740.0, "HOCHWERT": 5757657.0, "WLAN_STATUS": "in Betrieb" }, "geometry": { "type": "Point", "coordinates": [ 7.628101034732659, 51.961607740426842 ] } },
{ "type": "Feature", "properties": { "NAME": "Rathaus", "ADRESSE": "Prinzipalmarkt 10", "RECHTSWERT": 405754.0, "HOCHWERT": 5757652.0, "WLAN_STATUS": "in Betrieb" }, "geometry": { "type": "Point", "coordinates": [ 7.628306105391965, 51.961565171614787 ] } },
{ "type": "Feature", "properties": { "NAME": "Stadtbücherei Münster", "ADRESSE": "Alter Steinweg 11", "RECHTSWERT": 405902.0, "HOCHWERT": 5757809.0, "WLAN_STATUS": "in Betrieb" }, "geometry": { "type": "Point", "coordinates": [ 7.630416476071561, 51.963001425988836 ] } },
{ "type": "Feature", "properties": { "NAME": "Stadtbücherei Münster", "ADRESSE": "Alter Steinweg 11", "RECHTSWERT": 405939.0, "HOCHWERT": 5757799.0, "WLAN_STATUS": "in Betrieb" }, "geometry": { "type": "Point", "coordinates": [ 7.630957578642692, 51.962917802798515 ] } },
{ "type": "Feature", "properties": { "NAME": "Kinder- und Familienbüro", "ADRESSE": "Junkerstraße 1", "RECHTSWERT": 405866.0, "HOCHWERT": 5756794.0, "WLAN_STATUS": "in Betrieb" }, "geometry": { "type": "Point", "coordinates": [ 7.630170795891983, 51.953872054965387 ] } },
{ "type": "Feature", "properties": { "NAME": "Jobcenter Münster", "ADRESSE": "Ludgeriplatz 4", "RECHTSWERT": 405660.0, "HOCHWERT": 5756926.0, "WLAN_STATUS": "in Betrieb" }, "geometry": { "type": "Point", "coordinates": [ 7.627137790306371, 51.955023622732298 ] } },
{ "type": "Feature", "properties": { "NAME": "Stadthaus 2", "ADRESSE": "Ludgeriplatz 4", "RECHTSWERT": 405660.0, "HOCHWERT": 5756926.0, "WLAN_STATUS": "in Betrieb" }, "geometry": { "type": "Point", "coordinates": [ 7.627137790306371, 51.955023622732298 ] } },
{ "type": "Feature", "properties": { "NAME": "Amt für Gesundheit, Veterinär- und Lebensmittelangelegen-heiten", "ADRESSE": "Stühmerweg 8", "RECHTSWERT": 406271.0, "HOCHWERT": 5758530.0, "WLAN_STATUS": "in Betrieb" }, "geometry": { "type": "Point", "coordinates": [ 7.635588761432029, 51.969544438320732 ] } },
{ "type": "Feature", "properties": { "NAME": "Stadtbücherei Hansaplatz", "ADRESSE": "Wolbecker Straße 97", "RECHTSWERT": 406931.0, "HOCHWERT": 5756977.0, "WLAN_STATUS": "in Betrieb" }, "geometry": { "type": "Point", "coordinates": [ 7.645614302230555, 51.955696202616906 ] } },
{ "type": "Feature", "properties": { "NAME": "citeq Nebenstandort", "ADRESSE": "Friedrich-Ebert-Straße 110", "RECHTSWERT": 405877.0, "HOCHWERT": 5756008.0, "WLAN_STATUS": "in Betrieb" }, "geometry": { "type": "Point", "coordinates": [ 7.630546072772373, 51.946808984228547 ] } },
{ "type": "Feature", "properties": { "NAME": "Amt für Schule und Weiterbildung", "ADRESSE": "Friedrich-Ebert-Straße 110", "RECHTSWERT": 405877.0, "HOCHWERT": 5756008.0, "WLAN_STATUS": "in Betrieb" }, "geometry": { "type": "Point", "coordinates": [ 7.630546072772373, 51.946808984228547 ] } },
{ "type": "Feature", "properties": { "NAME": "Stadthaus 3", "ADRESSE": "Albersloher Weg 33", "RECHTSWERT": 406500.0, "HOCHWERT": 5756275.0, "WLAN_STATUS": "in Betrieb" }, "geometry": { "type": "Point", "coordinates": [ 7.639535088296734, 51.949313979508311 ] } },
{ "type": "Feature", "properties": { "NAME": "Bücherei St. Michael", "ADRESSE": "Enschedeweg 2", "RECHTSWERT": 402423.0, "HOCHWERT": 5758421.0, "WLAN_STATUS": "in Betrieb" }, "geometry": { "type": "Point", "coordinates": [ 7.579622717418119, 51.967902511241327 ] } },
{ "type": "Feature", "properties": { "NAME": "Bürgerhaus Kinderhaus", "ADRESSE": "Idenbrockplatz 8", "RECHTSWERT": 404134.0, "HOCHWERT": 5761481.0, "WLAN_STATUS": "in Betrieb" }, "geometry": { "type": "Point", "coordinates": [ 7.60366568820226, 51.995704481613586 ] } },
{ "type": "Feature", "properties": { "NAME": "Wuddi", "ADRESSE": "Idenbrockplatz 8", "RECHTSWERT": 404134.0, "HOCHWERT": 5761481.0, "WLAN_STATUS": "in Betrieb" }, "geometry": { "type": "Point", "coordinates": [ 7.60366568820226, 51.995704481613586 ] } },
{ "type": "Feature", "properties": { "NAME": "Bezirksverwaltung Nord", "ADRESSE": "Idenbrockplatz 8", "RECHTSWERT": 404134.0, "HOCHWERT": 5761481.0, "WLAN_STATUS": "in Betrieb" }, "geometry": { "type": "Point", "coordinates": [ 7.60366568820226, 51.995704481613586 ] } },
{ "type": "Feature", "properties": { "NAME": "Stadtbücherei Kinderhaus", "ADRESSE": "Idenbrockplatz 8", "RECHTSWERT": 404134.0, "HOCHWERT": 5761481.0, "WLAN_STATUS": "in Betrieb" }, "geometry": { "type": "Point", "coordinates": [ 7.60366568820226, 51.995704481613586 ] } },
{ "type": "Feature", "properties": { "NAME": "Bezirksverwaltung Ost", "ADRESSE": "Vennemannstraße 5", "RECHTSWERT": 410544.0, "HOCHWERT": 5760394.0, "WLAN_STATUS": "in Betrieb" }, "geometry": { "type": "Point", "coordinates": [ 7.69728699049513, 51.98700346543469 ] } },
{ "type": "Feature", "properties": { "NAME": "awm - Zentrale", "ADRESSE": "Rösnerstraße 10", "RECHTSWERT": 406783.0, "HOCHWERT": 5755253.0, "WLAN_STATUS": "in Betrieb" }, "geometry": { "type": "Point", "coordinates": [ 7.643928713508891, 51.940175209877587 ] } },
{ "type": "Feature", "properties": { "NAME": "Stadtbücherei Bücherbus", "ADRESSE": "Rösnerstraße 10", "RECHTSWERT": 406783.0, "HOCHWERT": 5755253.0, "WLAN_STATUS": "in Betrieb" }, "geometry": { "type": "Point", "coordinates": [ 7.643928713508891, 51.940175209877587 ] } },
{ "type": "Feature", "properties": { "NAME": "Bürgerbüro Coerde", "ADRESSE": "Hamannplatz 39", "RECHTSWERT": 407233.0, "HOCHWERT": 5761149.0, "WLAN_STATUS": "in Betrieb" }, "geometry": { "type": "Point", "coordinates": [ 7.648880157101487, 51.993246676102792 ] } },
{ "type": "Feature", "properties": { "NAME": "Stadtbücherei Coerde", "ADRESSE": "Hamannplatz 39", "RECHTSWERT": 407233.0, "HOCHWERT": 5761149.0, "WLAN_STATUS": "in Betrieb" }, "geometry": { "type": "Point", "coordinates": [ 7.648880157101487, 51.993246676102792 ] } },
{ "type": "Feature", "properties": { "NAME": "Personal- und Organisationsamt", "ADRESSE": "Wolbecker Straße 284", "RECHTSWERT": 408488.0, "HOCHWERT": 5756458.0, "WLAN_STATUS": "in Betrieb" }, "geometry": { "type": "Point", "coordinates": [ 7.668404076598501, 51.951289524936385 ] } },
{ "type": "Feature", "properties": { "NAME": "Westfälische Schule für Musik", "ADRESSE": "Himmelreichallee 50", "RECHTSWERT": 404621.0, "HOCHWERT": 5757531.0, "WLAN_STATUS": "in Betrieb" }, "geometry": { "type": "Point", "coordinates": [ 7.611854771132055, 51.960284364598785 ] } },
{ "type": "Feature", "properties": { "NAME": "Freibad Hiltrup", "ADRESSE": "Zum Hiltruper See 171", "RECHTSWERT": 407571.0, "HOCHWERT": 5749563.0, "WLAN_STATUS": "in Betrieb" }, "geometry": { "type": "Point", "coordinates": [ 7.656915761224061, 51.889161456021355 ] } },
{ "type": "Feature", "properties": { "NAME": "citeq", "ADRESSE": "Scheibenstraße 109", "RECHTSWERT": 405660.0, "HOCHWERT": 5755158.0, "WLAN_STATUS": "in Betrieb" }, "geometry": { "type": "Point", "coordinates": [ 7.627623001949941, 51.939132030169347 ] } },
{ "type": "Feature", "properties": { "NAME": "Bezirksverwaltung Südost", "ADRESSE": "Münsterstraße 7", "RECHTSWERT": 412521.0, "HOCHWERT": 5752613.0, "WLAN_STATUS": "in Betrieb" }, "geometry": { "type": "Point", "coordinates": [ 7.728050245957013, 51.917376402107955 ] } },
{ "type": "Feature", "properties": { "NAME": "La Vie", "ADRESSE": "Dieckmannstraße 127", "RECHTSWERT": 401481.0, "HOCHWERT": 5758221.0, "WLAN_STATUS": "in Betrieb" }, "geometry": { "type": "Point", "coordinates": [ 7.565972522298882, 51.965938712673477 ] } },
{ "type": "Feature", "properties": { "NAME": "Münster Marketing", "ADRESSE": "Klemensstraße 10", "RECHTSWERT": 405822.0, "HOCHWERT": 5757656.0, "WLAN_STATUS": "in Betrieb" }, "geometry": { "type": "Point", "coordinates": [ 7.629294401511412, 51.961612648202994 ] } },
{ "type": "Feature", "properties": { "NAME": "Stadthaus 1", "ADRESSE": "Klemensstraße 10", "RECHTSWERT": 405814.0, "HOCHWERT": 5757604.0, "WLAN_STATUS": "in Betrieb" }, "geometry": { "type": "Point", "coordinates": [ 7.629192261706201, 51.961143894014292 ] } },
{ "type": "Feature", "properties": { "NAME": "Stadthaus 1 Außenbereich-Rathausinnenhof", "ADRESSE": "Klemensstraße 10", "RECHTSWERT": 405800.0, "HOCHWERT": 5757640.0, "WLAN_STATUS": "in Betrieb" }, "geometry": { "type": "Point", "coordinates": [ 7.62897869170031, 51.961465106078577 ] } },
{ "type": "Feature", "properties": { "NAME": "Stadtbücherei Aaseemarkt", "ADRESSE": "Goerdelerstraße 51", "RECHTSWERT": 404355.0, "HOCHWERT": 5755938.0, "WLAN_STATUS": "in Betrieb" }, "geometry": { "type": "Point", "coordinates": [ 7.608428028161315, 51.945920188181347 ] } },
{ "type": "Feature", "properties": { "NAME": "Amt für Kinder, Jugendliche und Familien", "ADRESSE": "Hafenstraße 30", "RECHTSWERT": 405877.0, "HOCHWERT": 5756809.0, "WLAN_STATUS": "in Betrieb" }, "geometry": { "type": "Point", "coordinates": [ 7.630326708649442, 51.954008743654967 ] } },
{ "type": "Feature", "properties": { "NAME": "Amt für Kinder, Jugendliche und Familien", "ADRESSE": "Hafenstraße 30", "RECHTSWERT": 405877.0, "HOCHWERT": 5756809.0, "WLAN_STATUS": "in Betrieb" }, "geometry": { "type": "Point", "coordinates": [ 7.630326708649442, 51.954008743654967 ] } },
{ "type": "Feature", "properties": { "NAME": "Theater Münster", "ADRESSE": "Neubrückenstraße 63", "RECHTSWERT": 405807.0, "HOCHWERT": 5758022.0, "WLAN_STATUS": "in Betrieb" }, "geometry": { "type": "Point", "coordinates": [ 7.628975769552081, 51.964899875674035 ] } },
{ "type": "Feature", "properties": { "NAME": "Ludgerusschule Hiltrup", "ADRESSE": "An der Alten Kirche 161", "RECHTSWERT": 405513.0, "HOCHWERT": 5751213.0, "WLAN_STATUS": "in Betrieb" }, "geometry": { "type": "Point", "coordinates": [ 7.626567974968321, 51.903647487535743 ] } },
{ "type": "Feature", "properties": { "NAME": "Bezirksverwaltung West", "ADRESSE": "Pantaleonplatz 7", "RECHTSWERT": 399268.0, "HOCHWERT": 5756885.0, "WLAN_STATUS": "in Betrieb" }, "geometry": { "type": "Point", "coordinates": [ 7.534163483720668, 51.953534041294787 ] } },
{ "type": "Feature", "properties": { "NAME": "Bürgerbüro Gremmendorf", "ADRESSE": "Albersloher Weg 550", "RECHTSWERT": 408682.0, "HOCHWERT": 5753405.0, "WLAN_STATUS": "in Betrieb" }, "geometry": { "type": "Point", "coordinates": [ 7.672036745357183, 51.923879106522278 ] } },
{ "type": "Feature", "properties": { "NAME": "KFZ-Zulassungsstelle", "ADRESSE": "Rudolf-Diesel-Straße 5", "RECHTSWERT": 408411.0, "HOCHWERT": 5760902.0, "WLAN_STATUS": "in Betrieb" }, "geometry": { "type": "Point", "coordinates": [ 7.666098251032254, 51.991222037642487 ] } },
{ "type": "Feature", "properties": { "NAME": "Standesamt (Trausäle)", "ADRESSE": "Hörsterstraße 28", "RECHTSWERT": 406057.0, "HOCHWERT": 5758068.0, "WLAN_STATUS": "in Betrieb" }, "geometry": { "type": "Point", "coordinates": [ 7.632600933363869, 51.965355647966668 ] } },
{ "type": "Feature", "properties": { "NAME": "Bürgerbüro Gievenbeck", "ADRESSE": "Rüschhausweg 17", "RECHTSWERT": 402276.0, "HOCHWERT": 5758402.0, "WLAN_STATUS": "in Betrieb" }, "geometry": { "type": "Point", "coordinates": [ 7.577489035613361, 51.967705910333748 ] } },
{ "type": "Feature", "properties": { "NAME": "Freibad Stapelskotten", "ADRESSE": "Laerer Werseufer 2", "RECHTSWERT": 410005.0, "HOCHWERT": 5755994.0, "WLAN_STATUS": "in Betrieb" }, "geometry": { "type": "Point", "coordinates": [ 7.690593233367131, 51.947366310039953 ] } },
{ "type": "Feature", "properties": { "NAME": "Feuerwache 1", "ADRESSE": "York-Ring 25", "RECHTSWERT": 404605.0, "HOCHWERT": 5759119.0, "WLAN_STATUS": "in Betrieb" }, "geometry": { "type": "Point", "coordinates": [ 7.611180774347126, 51.974555144286725 ] } },
{ "type": "Feature", "properties": { "NAME": "Jobcenter Münster", "ADRESSE": "Patronatsstraße 20", "RECHTSWERT": 406306.0, "HOCHWERT": 5751321.0, "WLAN_STATUS": "in Betrieb" }, "geometry": { "type": "Point", "coordinates": [ 7.638061866936738, 51.904752178379056 ] } },
{ "type": "Feature", "properties": { "NAME": "Bezirksverwaltung Hiltrup", "ADRESSE": "Patronatsstraße 20", "RECHTSWERT": 406306.0, "HOCHWERT": 5751321.0, "WLAN_STATUS": "in Betrieb" }, "geometry": { "type": "Point", "coordinates": [ 7.638061866936738, 51.904752178379056 ] } },
{ "type": "Feature", "properties": { "NAME": "Jobcenter Münster", "ADRESSE": "Idenbrockplatz 26", "RECHTSWERT": 404065.0, "HOCHWERT": 5761380.0, "WLAN_STATUS": "in Betrieb" }, "geometry": { "type": "Point", "coordinates": [ 7.602689259291368, 51.994784748042633 ] } },
{ "type": "Feature", "properties": { "NAME": "Kommunaler Ordnungsdienst", "ADRESSE": "Nieberdingstraße 30", "RECHTSWERT": 406600.0, "HOCHWERT": 5755451.0, "WLAN_STATUS": "in Betrieb" }, "geometry": { "type": "Point", "coordinates": [ 7.641213555976346, 51.941924247433576 ] } },
{ "type": "Feature", "properties": { "NAME": "Gesundheits- und Veterinäramt", "ADRESSE": "Nieberdingstraße 30a", "RECHTSWERT": 406651.0, "HOCHWERT": 5755534.0, "WLAN_STATUS": "in Betrieb" }, "geometry": { "type": "Point", "coordinates": [ 7.641932747372621, 51.942678853815806 ] } },
{ "type": "Feature", "properties": { "NAME": "Annette-von-Droste-Hülshoff-Gymnasium", "ADRESSE": "Grüne Gasse 38", "RECHTSWERT": 405428.0, "HOCHWERT": 5757277.0, "WLAN_STATUS": "in Betrieb" }, "geometry": { "type": "Point", "coordinates": [ 7.623666093445094, 51.9581391555948 ] } },
{ "type": "Feature", "properties": { "NAME": "Stadthalle Hiltrup", "ADRESSE": "Westfalenstraße 197", "RECHTSWERT": 406431.0, "HOCHWERT": 5750955.0, "WLAN_STATUS": "in Betrieb" }, "geometry": { "type": "Point", "coordinates": [ 7.639977686902437, 51.901483369569561 ] } },
{ "type": "Feature", "properties": { "NAME": "Jobcenter Oxford Kaserne", "ADRESSE": "Roxeler Straße 340", "RECHTSWERT": 402178.0, "HOCHWERT": 5757482.0, "WLAN_STATUS": "in Betrieb" }, "geometry": { "type": "Point", "coordinates": [ 7.576325037236896, 51.959419495573442 ] } }
]
}
